1753792808: mosquitto version 2.0.22 starting
1753792808: Config loaded from /mosquitto/config/mosquitto.conf.
1753792808: Opening ipv4 listen socket on port 1883.
1753792808: Opening websockets listen socket on port 9001.
1753792808: mosquitto version 2.0.22 running
1753792809: New client connected from 18.198.0.86:36180 as mqttjs_e3691d0d (p2, c1, k60).
1753792809: No will message specified.
1753792809: Sending CONNACK to mqttjs_e3691d0d (0, 0)
1753792809: New client connected from 18.198.0.86:36190 as mqttjs_532dea79 (p2, c1, k60).
1753792809: No will message specified.
1753792809: Sending CONNACK to mqttjs_532dea79 (0, 0)
1753792809: Received UNSUBSCRIBE from mqttjs_e3691d0d
1753792809: 	mavlink/+/json/#
1753792809: mqttjs_e3691d0d mavlink/+/json/#
1753792809: Sending UNSUBACK to mqttjs_e3691d0d
1753792809: Received UNSUBSCRIBE from mqttjs_532dea79
1753792809: 	mavlink/+/json/#
1753792809: mqttjs_532dea79 mavlink/+/json/#
1753792809: Sending UNSUBACK to mqttjs_532dea79
1753792809: Received SUBSCRIBE from mqttjs_532dea79
1753792809: 	mavlink/+/json/# (QoS 0)
1753792809: mqttjs_532dea79 0 mavlink/+/json/#
1753792809: Sending SUBACK to mqttjs_532dea79
1753792809: Received SUBSCRIBE from mqttjs_e3691d0d
1753792809: 	mavlink/+/json/# (QoS 0)
1753792809: mqttjs_e3691d0d 0 mavlink/+/json/#
1753792809: Sending SUBACK to mqttjs_e3691d0d
1753792809: New client connected from 18.198.0.86:36192 as mqttjs_f5b3135a (p2, c1, k60).
1753792809: No will message specified.
1753792809: Sending CONNACK to mqttjs_f5b3135a (0, 0)
1753792809: Received UNSUBSCRIBE from mqttjs_f5b3135a
1753792809: 	mavlink/+/json/#
1753792809: mqttjs_f5b3135a mavlink/+/json/#
1753792809: Sending UNSUBACK to mqttjs_f5b3135a
1753792809: Received SUBSCRIBE from mqttjs_f5b3135a
1753792809: 	mavlink/+/json/# (QoS 0)
1753792809: mqttjs_f5b3135a 0 mavlink/+/json/#
1753792809: Sending SUBACK to mqttjs_f5b3135a
1753792809: New connection from 172.18.0.1:45948 on port 1883.
1753792809: New client connected from 172.18.0.1:45948 as telemetry_10_8_0_50_14550 (p2, c0, k30).
1753792809: No will message specified.
1753792809: Sending CONNACK to telemetry_10_8_0_50_14550 (0, 0)
1753792809: Received PUBLISH from telemetry_10_8_0_50_14550 (d0, q0, r1, m0, 'mavlink/10_8_0_50_14550/json/POWER_STATUS', ... (123 bytes))
1753792809: Sending PUBLISH to mqttjs_532dea79 (d0, q0, r0, m0, 'mavlink/10_8_0_50_14550/json/POWER_STATUS', ... (123 bytes))
1753792809: Sending PUBLISH to mqttjs_e3691d0d (d0, q0, r0, m0, 'mavlink/10_8_0_50_14550/json/POWER_STATUS', ... (123 bytes))
1753792809: Sending PUBLISH to mqttjs_f5b3135a (d0, q0, r0, m0, 'mavlink/10_8_0_50_14550/json/POWER_STATUS', ... (123 bytes))
1753792810: Received PUBLISH from telemetry_10_8_0_50_14550 (d0, q0, r1, m0, 'mavlink/10_8_0_50_14550/json/ATTITUDE', ... (178 bytes))
1753792810: Sending PUBLISH to mqttjs_532dea79 (d0, q0, r0, m0, 'mavlink/10_8_0_50_14550/json/ATTITUDE', ... (178 bytes))
1753792810: Sending PUBLISH to mqttjs_e3691d0d (d0, q0, r0, m0, 'mavlink/10_8_0_50_14550/json/ATTITUDE', ... (178 bytes))
1753792810: Sending PUBLISH to mqttjs_f5b3135a (d0, q0, r0, m0, 'mavlink/10_8_0_50_14550/json/ATTITUDE', ... (178 bytes))
1753792810: Received PUBLISH from telemetry_10_8_0_50_14550 (d0, q0, r1, m0, 'mavlink/10_8_0_50_14550/json/HEARTBEAT', ... (182 bytes))
1753792810: Sending PUBLISH to mqttjs_532dea79 (d0, q0, r0, m0, 'mavlink/10_8_0_50_14550/json/HEARTBEAT', ... (182 bytes))
1753792810: Sending PUBLISH to mqttjs_e3691d0d (d0, q0, r0, m0, 'mavlink/10_8_0_50_14550/json/HEARTBEAT', ... (182 bytes))
1753792810: Sending PUBLISH to mqttjs_f5b3135a (d0, q0, r0, m0, 'mavlink/10_8_0_50_14550/json/HEARTBEAT', ... (182 bytes))
1753792810: Received PUBLISH from telemetry_10_8_0_50_14550 (d0, q0, r1, m0, 'mavlink/10_8_0_50_14550/json/ATTITUDE', ... (178 bytes))
1753792810: Sending PUBLISH to mqttjs_532dea79 (d0, q0, r0, m0, 'mavlink/10_8_0_50_14550/json/ATTITUDE', ... (178 bytes))
1753792810: Sending PUBLISH to mqttjs_e3691d0d (d0, q0, r0, m0, 'mavlink/10_8_0_50_14550/json/ATTITUDE', ... (178 bytes))
1753792810: Sending PUBLISH to mqttjs_f5b3135a (d0, q0, r0, m0, 'mavlink/10_8_0_50_14550/json/ATTITUDE', ... (178 bytes))
1753792811: Received PUBLISH from telemetry_10_8_0_50_14550 (d0, q0, r1, m0, 'mavlink/10_8_0_50_14550/json/POWER_STATUS', ... (123 bytes))
1753792811: Sending PUBLISH to mqttjs_532dea79 (d0, q0, r0, m0, 'mavlink/10_8_0_50_14550/json/POWER_STATUS', ... (123 bytes))
1753792811: Sending PUBLISH to mqttjs_e3691d0d (d0, q0, r0, m0, 'mavlink/10_8_0_50_14550/json/POWER_STATUS', ... (123 bytes))
1753792811: Sending PUBLISH to mqttjs_f5b3135a (d0, q0, r0, m0, 'mavlink/10_8_0_50_14550/json/POWER_STATUS', ... (123 bytes))
1753792811: Received PUBLISH from telemetry_10_8_0_50_14550 (d0, q0, r1, m0, 'mavlink/10_8_0_50_14550/json/ATTITUDE', ... (178 bytes))
1753792811: Sending PUBLISH to mqttjs_532dea79 (d0, q0, r0, m0, 'mavlink/10_8_0_50_14550/json/ATTITUDE', ... (178 bytes))
1753792811: Sending PUBLISH to mqttjs_e3691d0d (d0, q0, r0, m0, 'mavlink/10_8_0_50_14550/json/ATTITUDE', ... (178 bytes))
1753792811: Sending PUBLISH to mqttjs_f5b3135a (d0, q0, r0, m0, 'mavlink/10_8_0_50_14550/json/ATTITUDE', ... (178 bytes))
1753792811: Received PUBLISH from telemetry_10_8_0_50_14550 (d0, q0, r1, m0, 'mavlink/10_8_0_50_14550/json/VFR_HUD', ... (160 bytes))
1753792811: Sending PUBLISH to mqttjs_532dea79 (d0, q0, r0, m0, 'mavlink/10_8_0_50_14550/json/VFR_HUD', ... (160 bytes))
1753792811: Sending PUBLISH to mqttjs_e3691d0d (d0, q0, r0, m0, 'mavlink/10_8_0_50_14550/json/VFR_HUD', ... (160 bytes))
1753792811: Sending PUBLISH to mqttjs_f5b3135a (d0, q0, r0, m0, 'mavlink/10_8_0_50_14550/json/VFR_HUD', ... (160 bytes))
1753792811: Received PUBLISH from telemetry_10_8_0_50_14550 (d0, q0, r1, m0, 'mavlink/10_8_0_50_14550/json/POWER_STATUS', ... (123 bytes))
1753792811: Sending PUBLISH to mqttjs_532dea79 (d0, q0, r0, m0, 'mavlink/10_8_0_50_14550/json/POWER_STATUS', ... (123 bytes))
1753792811: Sending PUBLISH to mqttjs_e3691d0d (d0, q0, r0, m0, 'mavlink/10_8_0_50_14550/json/POWER_STATUS', ... (123 bytes))
1753792811: Sending PUBLISH to mqttjs_f5b3135a (d0, q0, r0, m0, 'mavlink/10_8_0_50_14550/json/POWER_STATUS', ... (123 bytes))
1753792811: Received PUBLISH from telemetry_10_8_0_50_14550 (d0, q0, r1, m0, 'mavlink/10_8_0_50_14550/json/ATTITUDE', ... (177 bytes))
1753792811: Sending PUBLISH to mqttjs_532dea79 (d0, q0, r0, m0, 'mavlink/10_8_0_50_14550/json/ATTITUDE', ... (177 bytes))
1753792811: Sending PUBLISH to mqttjs_e3691d0d (d0, q0, r0, m0, 'mavlink/10_8_0_50_14550/json/ATTITUDE', ... (177 bytes))
1753792811: Sending PUBLISH to mqttjs_f5b3135a (d0, q0, r0, m0, 'mavlink/10_8_0_50_14550/json/ATTITUDE', ... (177 bytes))
1753792811: Received PUBLISH from telemetry_10_8_0_50_14550 (d0, q0, r1, m0, 'mavlink/10_8_0_50_14550/json/POWER_STATUS', ... (123 bytes))
1753792811: Sending PUBLISH to mqttjs_532dea79 (d0, q0, r0, m0, 'mavlink/10_8_0_50_14550/json/POWER_STATUS', ... (123 bytes))
1753792811: Sending PUBLISH to mqttjs_e3691d0d (d0, q0, r0, m0, 'mavlink/10_8_0_50_14550/json/POWER_STATUS', ... (123 bytes))
1753792811: Sending PUBLISH to mqttjs_f5b3135a (d0, q0, r0, m0, 'mavlink/10_8_0_50_14550/json/POWER_STATUS', ... (123 bytes))
1753792812: Received PUBLISH from telemetry_10_8_0_50_14550 (d0, q0, r1, m0, 'mavlink/10_8_0_50_14550/json/VFR_HUD', ... (160 bytes))
1753792812: Sending PUBLISH to mqttjs_532dea79 (d0, q0, r0, m0, 'mavlink/10_8_0_50_14550/json/VFR_HUD', ... (160 bytes))
1753792812: Sending PUBLISH to mqttjs_e3691d0d (d0, q0, r0, m0, 'mavlink/10_8_0_50_14550/json/VFR_HUD', ... (160 bytes))
1753792812: Sending PUBLISH to mqttjs_f5b3135a (d0, q0, r0, m0, 'mavlink/10_8_0_50_14550/json/VFR_HUD', ... (160 bytes))
1753792812: Received PUBLISH from telemetry_10_8_0_50_14550 (d0, q0, r1, m0, 'mavlink/10_8_0_50_14550/json/HEARTBEAT', ... (182 bytes))
1753792812: Sending PUBLISH to mqttjs_532dea79 (d0, q0, r0, m0, 'mavlink/10_8_0_50_14550/json/HEARTBEAT', ... (182 bytes))
1753792812: Sending PUBLISH to mqttjs_e3691d0d (d0, q0, r0, m0, 'mavlink/10_8_0_50_14550/json/HEARTBEAT', ... (182 bytes))
1753792812: Sending PUBLISH to mqttjs_f5b3135a (d0, q0, r0, m0, 'mavlink/10_8_0_50_14550/json/HEARTBEAT', ... (182 bytes))
1753792812: Received PUBLISH from telemetry_10_8_0_50_14550 (d0, q0, r1, m0, 'mavlink/10_8_0_50_14550/json/RC_CHANNELS_SCALED', ... (284 bytes))
1753792812: Sending PUBLISH to mqttjs_532dea79 (d0, q0, r0, m0, 'mavlink/10_8_0_50_14550/json/RC_CHANNELS_SCALED', ... (284 bytes))
1753792812: Sending PUBLISH to mqttjs_e3691d0d (d0, q0, r0, m0, 'mavlink/10_8_0_50_14550/json/RC_CHANNELS_SCALED', ... (284 bytes))
1753792812: Sending PUBLISH to mqttjs_f5b3135a (d0, q0, r0, m0, 'mavlink/10_8_0_50_14550/json/RC_CHANNELS_SCALED', ... (284 bytes))
1753792812: Received PUBLISH from telemetry_10_8_0_50_14550 (d0, q0, r1, m0, 'mavlink/10_8_0_50_14550/json/ATTITUDE', ... (178 bytes))
1753792812: Sending PUBLISH to mqttjs_532dea79 (d0, q0, r0, m0, 'mavlink/10_8_0_50_14550/json/ATTITUDE', ... (178 bytes))
1753792812: Sending PUBLISH to mqttjs_e3691d0d (d0, q0, r0, m0, 'mavlink/10_8_0_50_14550/json/ATTITUDE', ... (178 bytes))
1753792812: Sending PUBLISH to mqttjs_f5b3135a (d0, q0, r0, m0, 'mavlink/10_8_0_50_14550/json/ATTITUDE', ... (178 bytes))
1753792812: Received PUBLISH from telemetry_10_8_0_50_14550 (d0, q0, r1, m0, 'mavlink/10_8_0_50_14550/json/POWER_STATUS', ... (121 bytes))
1753792812: Sending PUBLISH to mqttjs_532dea79 (d0, q0, r0, m0, 'mavlink/10_8_0_50_14550/json/POWER_STATUS', ... (121 bytes))
1753792812: Sending PUBLISH to mqttjs_e3691d0d (d0, q0, r0, m0, 'mavlink/10_8_0_50_14550/json/POWER_STATUS', ... (121 bytes))
1753792812: Sending PUBLISH to mqttjs_f5b3135a (d0, q0, r0, m0, 'mavlink/10_8_0_50_14550/json/POWER_STATUS', ... (121 bytes))
1753792813: Received PUBLISH from telemetry_10_8_0_50_14550 (d0, q0, r1, m0, 'mavlink/10_8_0_50_14550/json/ATTITUDE', ... (177 bytes))
1753792813: Sending PUBLISH to mqttjs_532dea79 (d0, q0, r0, m0, 'mavlink/10_8_0_50_14550/json/ATTITUDE', ... (177 bytes))
1753792813: Sending PUBLISH to mqttjs_e3691d0d (d0, q0, r0, m0, 'mavlink/10_8_0_50_14550/json/ATTITUDE', ... (177 bytes))
1753792813: Sending PUBLISH to mqttjs_f5b3135a (d0, q0, r0, m0, 'mavlink/10_8_0_50_14550/json/ATTITUDE', ... (177 bytes))
1753792813: Received PUBLISH from telemetry_10_8_0_50_14550 (d0, q0, r1, m0, 'mavlink/10_8_0_50_14550/json/HEARTBEAT', ... (181 bytes))
1753792813: Sending PUBLISH to mqttjs_532dea79 (d0, q0, r0, m0, 'mavlink/10_8_0_50_14550/json/HEARTBEAT', ... (181 bytes))
1753792813: Sending PUBLISH to mqttjs_e3691d0d (d0, q0, r0, m0, 'mavlink/10_8_0_50_14550/json/HEARTBEAT', ... (181 bytes))
1753792813: Sending PUBLISH to mqttjs_f5b3135a (d0, q0, r0, m0, 'mavlink/10_8_0_50_14550/json/HEARTBEAT', ... (181 bytes))
1753792813: Received PUBLISH from telemetry_10_8_0_50_14550 (d0, q0, r1, m0, 'mavlink/10_8_0_50_14550/json/ATTITUDE', ... (177 bytes))
1753792813: Sending PUBLISH to mqttjs_532dea79 (d0, q0, r0, m0, 'mavlink/10_8_0_50_14550/json/ATTITUDE', ... (177 bytes))
1753792813: Sending PUBLISH to mqttjs_e3691d0d (d0, q0, r0, m0, 'mavlink/10_8_0_50_14550/json/ATTITUDE', ... (177 bytes))
1753792813: Sending PUBLISH to mqttjs_f5b3135a (d0, q0, r0, m0, 'mavlink/10_8_0_50_14550/json/ATTITUDE', ... (177 bytes))
1753792814: Received PUBLISH from telemetry_10_8_0_50_14550 (d0, q0, r1, m0, 'mavlink/10_8_0_50_14550/json/POWER_STATUS', ... (123 bytes))
1753792814: Sending PUBLISH to mqttjs_532dea79 (d0, q0, r0, m0, 'mavlink/10_8_0_50_14550/json/POWER_STATUS', ... (123 bytes))
1753792814: Sending PUBLISH to mqttjs_e3691d0d (d0, q0, r0, m0, 'mavlink/10_8_0_50_14550/json/POWER_STATUS', ... (123 bytes))
1753792814: Sending PUBLISH to mqttjs_f5b3135a (d0, q0, r0, m0, 'mavlink/10_8_0_50_14550/json/POWER_STATUS', ... (123 bytes))
1753792814: Received PUBLISH from telemetry_10_8_0_50_14550 (d0, q0, r1, m0, 'mavlink/10_8_0_50_14550/json/VFR_HUD', ... (160 bytes))
1753792814: Sending PUBLISH to mqttjs_532dea79 (d0, q0, r0, m0, 'mavlink/10_8_0_50_14550/json/VFR_HUD', ... (160 bytes))
1753792814: Sending PUBLISH to mqttjs_e3691d0d (d0, q0, r0, m0, 'mavlink/10_8_0_50_14550/json/VFR_HUD', ... (160 bytes))
1753792814: Sending PUBLISH to mqttjs_f5b3135a (d0, q0, r0, m0, 'mavlink/10_8_0_50_14550/json/VFR_HUD', ... (160 bytes))
1753792814: Received PUBLISH from telemetry_10_8_0_50_14550 (d0, q0, r1, m0, 'mavlink/10_8_0_50_14550/json/HEARTBEAT', ... (181 bytes))
1753792814: Sending PUBLISH to mqttjs_532dea79 (d0, q0, r0, m0, 'mavlink/10_8_0_50_14550/json/HEARTBEAT', ... (181 bytes))
1753792814: Sending PUBLISH to mqttjs_e3691d0d (d0, q0, r0, m0, 'mavlink/10_8_0_50_14550/json/HEARTBEAT', ... (181 bytes))
1753792814: Sending PUBLISH to mqttjs_f5b3135a (d0, q0, r0, m0, 'mavlink/10_8_0_50_14550/json/HEARTBEAT', ... (181 bytes))
1753792814: Received PUBLISH from telemetry_10_8_0_50_14550 (d0, q0, r1, m0, 'mavlink/10_8_0_50_14550/json/VFR_HUD', ... (160 bytes))
1753792814: Sending PUBLISH to mqttjs_532dea79 (d0, q0, r0, m0, 'mavlink/10_8_0_50_14550/json/VFR_HUD', ... (160 bytes))
1753792814: Sending PUBLISH to mqttjs_e3691d0d (d0, q0, r0, m0, 'mavlink/10_8_0_50_14550/json/VFR_HUD', ... (160 bytes))
1753792814: Sending PUBLISH to mqttjs_f5b3135a (d0, q0, r0, m0, 'mavlink/10_8_0_50_14550/json/VFR_HUD', ... (160 bytes))
1753792814: Received PUBLISH from telemetry_10_8_0_50_14550 (d0, q0, r1, m0, 'mavlink/10_8_0_50_14550/json/GLOBAL_POSITION_INT', ... (229 bytes))
1753792814: Sending PUBLISH to mqttjs_532dea79 (d0, q0, r0, m0, 'mavlink/10_8_0_50_14550/json/GLOBAL_POSITION_INT', ... (229 bytes))
1753792814: Sending PUBLISH to mqttjs_e3691d0d (d0, q0, r0, m0, 'mavlink/10_8_0_50_14550/json/GLOBAL_POSITION_INT', ... (229 bytes))
1753792814: Sending PUBLISH to mqttjs_f5b3135a (d0, q0, r0, m0, 'mavlink/10_8_0_50_14550/json/GLOBAL_POSITION_INT', ... (229 bytes))
1753792815: Received PUBLISH from telemetry_10_8_0_50_14550 (d0, q0, r1, m0, 'mavlink/10_8_0_50_14550/json/VFR_HUD', ... (160 bytes))
1753792815: Sending PUBLISH to mqttjs_532dea79 (d0, q0, r0, m0, 'mavlink/10_8_0_50_14550/json/VFR_HUD', ... (160 bytes))
1753792815: Sending PUBLISH to mqttjs_e3691d0d (d0, q0, r0, m0, 'mavlink/10_8_0_50_14550/json/VFR_HUD', ... (160 bytes))
1753792815: Sending PUBLISH to mqttjs_f5b3135a (d0, q0, r0, m0, 'mavlink/10_8_0_50_14550/json/VFR_HUD', ... (160 bytes))
1753792815: Received PUBLISH from telemetry_10_8_0_50_14550 (d0, q0, r1, m0, 'mavlink/10_8_0_50_14550/json/HEARTBEAT', ... (181 bytes))
1753792815: Sending PUBLISH to mqttjs_532dea79 (d0, q0, r0, m0, 'mavlink/10_8_0_50_14550/json/HEARTBEAT', ... (181 bytes))
1753792815: Sending PUBLISH to mqttjs_e3691d0d (d0, q0, r0, m0, 'mavlink/10_8_0_50_14550/json/HEARTBEAT', ... (181 bytes))
1753792815: Sending PUBLISH to mqttjs_f5b3135a (d0, q0, r0, m0, 'mavlink/10_8_0_50_14550/json/HEARTBEAT', ... (181 bytes))
1753792815: Received PUBLISH from telemetry_10_8_0_50_14550 (d0, q0, r1, m0, 'mavlink/10_8_0_50_14550/json/BATTERY_STATUS', ... (314 bytes))
1753792815: Sending PUBLISH to mqttjs_532dea79 (d0, q0, r0, m0, 'mavlink/10_8_0_50_14550/json/BATTERY_STATUS', ... (314 bytes))
1753792815: Sending PUBLISH to mqttjs_e3691d0d (d0, q0, r0, m0, 'mavlink/10_8_0_50_14550/json/BATTERY_STATUS', ... (314 bytes))
1753792815: Sending PUBLISH to mqttjs_f5b3135a (d0, q0, r0, m0, 'mavlink/10_8_0_50_14550/json/BATTERY_STATUS', ... (314 bytes))
1753792815: Received PUBLISH from telemetry_10_8_0_50_14550 (d0, q0, r1, m0, 'mavlink/10_8_0_50_14550/json/VFR_HUD', ... (159 bytes))
1753792815: Sending PUBLISH to mqttjs_532dea79 (d0, q0, r0, m0, 'mavlink/10_8_0_50_14550/json/VFR_HUD', ... (159 bytes))
1753792815: Sending PUBLISH to mqttjs_e3691d0d (d0, q0, r0, m0, 'mavlink/10_8_0_50_14550/json/VFR_HUD', ... (159 bytes))
1753792815: Sending PUBLISH to mqttjs_f5b3135a (d0, q0, r0, m0, 'mavlink/10_8_0_50_14550/json/VFR_HUD', ... (159 bytes))
1753792815: Received PUBLISH from telemetry_10_8_0_50_14550 (d0, q0, r1, m0, 'mavlink/10_8_0_50_14550/json/GLOBAL_POSITION_INT', ... (230 bytes))
1753792815: Sending PUBLISH to mqttjs_532dea79 (d0, q0, r0, m0, 'mavlink/10_8_0_50_14550/json/GLOBAL_POSITION_INT', ... (230 bytes))
1753792815: Sending PUBLISH to mqttjs_e3691d0d (d0, q0, r0, m0, 'mavlink/10_8_0_50_14550/json/GLOBAL_POSITION_INT', ... (230 bytes))
1753792815: Sending PUBLISH to mqttjs_f5b3135a (d0, q0, r0, m0, 'mavlink/10_8_0_50_14550/json/GLOBAL_POSITION_INT', ... (230 bytes))
1753792816: Received PUBLISH from telemetry_10_8_0_50_14550 (d0, q0, r1, m0, 'mavlink/10_8_0_50_14550/json/ATTITUDE', ... (178 bytes))
1753792816: Sending PUBLISH to mqttjs_532dea79 (d0, q0, r0, m0, 'mavlink/10_8_0_50_14550/json/ATTITUDE', ... (178 bytes))
1753792816: Sending PUBLISH to mqttjs_e3691d0d (d0, q0, r0, m0, 'mavlink/10_8_0_50_14550/json/ATTITUDE', ... (178 bytes))
1753792816: Sending PUBLISH to mqttjs_f5b3135a (d0, q0, r0, m0, 'mavlink/10_8_0_50_14550/json/ATTITUDE', ... (178 bytes))
1753792816: Received PUBLISH from telemetry_10_8_0_50_14550 (d0, q0, r1, m0, 'mavlink/10_8_0_50_14550/json/HEARTBEAT', ... (182 bytes))
1753792816: Sending PUBLISH to mqttjs_532dea79 (d0, q0, r0, m0, 'mavlink/10_8_0_50_14550/json/HEARTBEAT', ... (182 bytes))
1753792816: Sending PUBLISH to mqttjs_e3691d0d (d0, q0, r0, m0, 'mavlink/10_8_0_50_14550/json/HEARTBEAT', ... (182 bytes))
1753792816: Sending PUBLISH to mqttjs_f5b3135a (d0, q0, r0, m0, 'mavlink/10_8_0_50_14550/json/HEARTBEAT', ... (182 bytes))
1753792816: Received PUBLISH from telemetry_10_8_0_50_14550 (d0, q0, r1, m0, 'mavlink/10_8_0_50_14550/json/BATTERY_STATUS', ... (314 bytes))
1753792816: Sending PUBLISH to mqttjs_532dea79 (d0, q0, r0, m0, 'mavlink/10_8_0_50_14550/json/BATTERY_STATUS', ... (314 bytes))
1753792816: Sending PUBLISH to mqttjs_e3691d0d (d0, q0, r0, m0, 'mavlink/10_8_0_50_14550/json/BATTERY_STATUS', ... (314 bytes))
1753792816: Sending PUBLISH to mqttjs_f5b3135a (d0, q0, r0, m0, 'mavlink/10_8_0_50_14550/json/BATTERY_STATUS', ... (314 bytes))
1753792816: Received PUBLISH from telemetry_10_8_0_50_14550 (d0, q0, r1, m0, 'mavlink/10_8_0_50_14550/json/VFR_HUD', ... (160 bytes))
1753792816: Sending PUBLISH to mqttjs_532dea79 (d0, q0, r0, m0, 'mavlink/10_8_0_50_14550/json/VFR_HUD', ... (160 bytes))
1753792816: Sending PUBLISH to mqttjs_e3691d0d (d0, q0, r0, m0, 'mavlink/10_8_0_50_14550/json/VFR_HUD', ... (160 bytes))
1753792816: Sending PUBLISH to mqttjs_f5b3135a (d0, q0, r0, m0, 'mavlink/10_8_0_50_14550/json/VFR_HUD', ... (160 bytes))
1753792817: Received PUBLISH from telemetry_10_8_0_50_14550 (d0, q0, r1, m0, 'mavlink/10_8_0_50_14550/json/POWER_STATUS', ... (123 bytes))
1753792817: Sending PUBLISH to mqttjs_532dea79 (d0, q0, r0, m0, 'mavlink/10_8_0_50_14550/json/POWER_STATUS', ... (123 bytes))
1753792817: Sending PUBLISH to mqttjs_e3691d0d (d0, q0, r0, m0, 'mavlink/10_8_0_50_14550/json/POWER_STATUS', ... (123 bytes))
1753792817: Sending PUBLISH to mqttjs_f5b3135a (d0, q0, r0, m0, 'mavlink/10_8_0_50_14550/json/POWER_STATUS', ... (123 bytes))
1753792817: Received PUBLISH from telemetry_10_8_0_50_14550 (d0, q0, r1, m0, 'mavlink/10_8_0_50_14550/json/VFR_HUD', ... (159 bytes))
1753792817: Sending PUBLISH to mqttjs_532dea79 (d0, q0, r0, m0, 'mavlink/10_8_0_50_14550/json/VFR_HUD', ... (159 bytes))
1753792817: Sending PUBLISH to mqttjs_e3691d0d (d0, q0, r0, m0, 'mavlink/10_8_0_50_14550/json/VFR_HUD', ... (159 bytes))
1753792817: Sending PUBLISH to mqttjs_f5b3135a (d0, q0, r0, m0, 'mavlink/10_8_0_50_14550/json/VFR_HUD', ... (159 bytes))
1753792817: Received PUBLISH from telemetry_10_8_0_50_14550 (d0, q0, r1, m0, 'mavlink/10_8_0_50_14550/json/HEARTBEAT', ... (182 bytes))
1753792817: Sending PUBLISH to mqttjs_532dea79 (d0, q0, r0, m0, 'mavlink/10_8_0_50_14550/json/HEARTBEAT', ... (182 bytes))
1753792817: Sending PUBLISH to mqttjs_e3691d0d (d0, q0, r0, m0, 'mavlink/10_8_0_50_14550/json/HEARTBEAT', ... (182 bytes))
1753792817: Sending PUBLISH to mqttjs_f5b3135a (d0, q0, r0, m0, 'mavlink/10_8_0_50_14550/json/HEARTBEAT', ... (182 bytes))
1753792817: Received PUBLISH from telemetry_10_8_0_50_14550 (d0, q0, r1, m0, 'mavlink/10_8_0_50_14550/json/ATTITUDE', ... (178 bytes))
1753792817: Sending PUBLISH to mqttjs_532dea79 (d0, q0, r0, m0, 'mavlink/10_8_0_50_14550/json/ATTITUDE', ... (178 bytes))
1753792817: Sending PUBLISH to mqttjs_e3691d0d (d0, q0, r0, m0, 'mavlink/10_8_0_50_14550/json/ATTITUDE', ... (178 bytes))
1753792817: Sending PUBLISH to mqttjs_f5b3135a (d0, q0, r0, m0, 'mavlink/10_8_0_50_14550/json/ATTITUDE', ... (178 bytes))
1753792817: Received PUBLISH from telemetry_10_8_0_50_14550 (d0, q0, r1, m0, 'mavlink/10_8_0_50_14550/json/POWER_STATUS', ... (122 bytes))
1753792817: Sending PUBLISH to mqttjs_532dea79 (d0, q0, r0, m0, 'mavlink/10_8_0_50_14550/json/POWER_STATUS', ... (122 bytes))
1753792817: Sending PUBLISH to mqttjs_e3691d0d (d0, q0, r0, m0, 'mavlink/10_8_0_50_14550/json/POWER_STATUS', ... (122 bytes))
1753792817: Sending PUBLISH to mqttjs_f5b3135a (d0, q0, r0, m0, 'mavlink/10_8_0_50_14550/json/POWER_STATUS', ... (122 bytes))
1753792818: Received PUBLISH from telemetry_10_8_0_50_14550 (d0, q0, r1, m0, 'mavlink/10_8_0_50_14550/json/EKF_STATUS_REPORT', ... (228 bytes))
1753792818: Sending PUBLISH to mqttjs_532dea79 (d0, q0, r0, m0, 'mavlink/10_8_0_50_14550/json/EKF_STATUS_REPORT', ... (228 bytes))
1753792818: Sending PUBLISH to mqttjs_e3691d0d (d0, q0, r0, m0, 'mavlink/10_8_0_50_14550/json/EKF_STATUS_REPORT', ... (228 bytes))
1753792818: Sending PUBLISH to mqttjs_f5b3135a (d0, q0, r0, m0, 'mavlink/10_8_0_50_14550/json/EKF_STATUS_REPORT', ... (228 bytes))
1753792818: Received PUBLISH from telemetry_10_8_0_50_14550 (d0, q0, r1, m0, 'mavlink/10_8_0_50_14550/json/VFR_HUD', ... (160 bytes))
1753792818: Sending PUBLISH to mqttjs_532dea79 (d0, q0, r0, m0, 'mavlink/10_8_0_50_14550/json/VFR_HUD', ... (160 bytes))
1753792818: Sending PUBLISH to mqttjs_e3691d0d (d0, q0, r0, m0, 'mavlink/10_8_0_50_14550/json/VFR_HUD', ... (160 bytes))
1753792818: Sending PUBLISH to mqttjs_f5b3135a (d0, q0, r0, m0, 'mavlink/10_8_0_50_14550/json/VFR_HUD', ... (160 bytes))
1753792818: Received PUBLISH from telemetry_10_8_0_50_14550 (d0, q0, r1, m0, 'mavlink/10_8_0_50_14550/json/HEARTBEAT', ... (182 bytes))
1753792818: Sending PUBLISH to mqttjs_532dea79 (d0, q0, r0, m0, 'mavlink/10_8_0_50_14550/json/HEARTBEAT', ... (182 bytes))
1753792818: Sending PUBLISH to mqttjs_e3691d0d (d0, q0, r0, m0, 'mavlink/10_8_0_50_14550/json/HEARTBEAT', ... (182 bytes))
1753792818: Sending PUBLISH to mqttjs_f5b3135a (d0, q0, r0, m0, 'mavlink/10_8_0_50_14550/json/HEARTBEAT', ... (182 bytes))
1753792818: Received PUBLISH from telemetry_10_8_0_50_14550 (d0, q0, r1, m0, 'mavlink/10_8_0_50_14550/json/VFR_HUD', ... (160 bytes))
1753792818: Sending PUBLISH to mqttjs_532dea79 (d0, q0, r0, m0, 'mavlink/10_8_0_50_14550/json/VFR_HUD', ... (160 bytes))
1753792818: Sending PUBLISH to mqttjs_e3691d0d (d0, q0, r0, m0, 'mavlink/10_8_0_50_14550/json/VFR_HUD', ... (160 bytes))
1753792818: Sending PUBLISH to mqttjs_f5b3135a (d0, q0, r0, m0, 'mavlink/10_8_0_50_14550/json/VFR_HUD', ... (160 bytes))
1753792818: New connection from 18.198.0.86:45708 on port 1883.
1753792818: New client connected from 18.198.0.86:45708 as auto-A4BD492F-475A-5DEB-AEC5-52C171B5DCDA (p2, c1, k60).
1753792818: No will message specified.
1753792818: Sending CONNACK to auto-A4BD492F-475A-5DEB-AEC5-52C171B5DCDA (0, 0)
1753792818: Received PUBLISH from auto-A4BD492F-475A-5DEB-AEC5-52C171B5DCDA (d0, q0, r0, m0, 'test/external', ... (12 bytes))
1753792818: Received DISCONNECT from auto-A4BD492F-475A-5DEB-AEC5-52C171B5DCDA
1753792818: Client auto-A4BD492F-475A-5DEB-AEC5-52C171B5DCDA disconnected.
1753792818: Received PUBLISH from telemetry_10_8_0_50_14550 (d0, q0, r1, m0, 'mavlink/10_8_0_50_14550/json/VFR_HUD', ... (160 bytes))
1753792818: Sending PUBLISH to mqttjs_532dea79 (d0, q0, r0, m0, 'mavlink/10_8_0_50_14550/json/VFR_HUD', ... (160 bytes))
1753792818: Sending PUBLISH to mqttjs_e3691d0d (d0, q0, r0, m0, 'mavlink/10_8_0_50_14550/json/VFR_HUD', ... (160 bytes))
1753792818: Sending PUBLISH to mqttjs_f5b3135a (d0, q0, r0, m0, 'mavlink/10_8_0_50_14550/json/VFR_HUD', ... (160 bytes))
1753792818: Received PUBLISH from telemetry_10_8_0_50_14550 (d0, q0, r1, m0, 'mavlink/10_8_0_50_14550/json/POWER_STATUS', ... (123 bytes))
1753792818: Sending PUBLISH to mqttjs_532dea79 (d0, q0, r0, m0, 'mavlink/10_8_0_50_14550/json/POWER_STATUS', ... (123 bytes))
1753792818: Sending PUBLISH to mqttjs_e3691d0d (d0, q0, r0, m0, 'mavlink/10_8_0_50_14550/json/POWER_STATUS', ... (123 bytes))
1753792818: Sending PUBLISH to mqttjs_f5b3135a (d0, q0, r0, m0, 'mavlink/10_8_0_50_14550/json/POWER_STATUS', ... (123 bytes))
1753792819: Received PUBLISH from telemetry_10_8_0_50_14550 (d0, q0, r1, m0, 'mavlink/10_8_0_50_14550/json/ATTITUDE', ... (178 bytes))
1753792819: Sending PUBLISH to mqttjs_532dea79 (d0, q0, r0, m0, 'mavlink/10_8_0_50_14550/json/ATTITUDE', ... (178 bytes))
1753792819: Sending PUBLISH to mqttjs_e3691d0d (d0, q0, r0, m0, 'mavlink/10_8_0_50_14550/json/ATTITUDE', ... (178 bytes))
1753792819: Sending PUBLISH to mqttjs_f5b3135a (d0, q0, r0, m0, 'mavlink/10_8_0_50_14550/json/ATTITUDE', ... (178 bytes))
1753792819: Received PUBLISH from telemetry_10_8_0_50_14550 (d0, q0, r1, m0, 'mavlink/10_8_0_50_14550/json/VFR_HUD', ... (160 bytes))
1753792819: Sending PUBLISH to mqttjs_532dea79 (d0, q0, r0, m0, 'mavlink/10_8_0_50_14550/json/VFR_HUD', ... (160 bytes))
1753792819: Sending PUBLISH to mqttjs_e3691d0d (d0, q0, r0, m0, 'mavlink/10_8_0_50_14550/json/VFR_HUD', ... (160 bytes))
1753792819: Sending PUBLISH to mqttjs_f5b3135a (d0, q0, r0, m0, 'mavlink/10_8_0_50_14550/json/VFR_HUD', ... (160 bytes))
1753792819: Received PUBLISH from telemetry_10_8_0_50_14550 (d0, q0, r1, m0, 'mavlink/10_8_0_50_14550/json/POWER_STATUS', ... (123 bytes))
1753792819: Sending PUBLISH to mqttjs_532dea79 (d0, q0, r0, m0, 'mavlink/10_8_0_50_14550/json/POWER_STATUS', ... (123 bytes))
1753792819: Sending PUBLISH to mqttjs_e3691d0d (d0, q0, r0, m0, 'mavlink/10_8_0_50_14550/json/POWER_STATUS', ... (123 bytes))
1753792819: Sending PUBLISH to mqttjs_f5b3135a (d0, q0, r0, m0, 'mavlink/10_8_0_50_14550/json/POWER_STATUS', ... (123 bytes))
1753792819: Received PUBLISH from telemetry_10_8_0_50_14550 (d0, q0, r1, m0, 'mavlink/10_8_0_50_14550/json/ATTITUDE', ... (178 bytes))
1753792819: Sending PUBLISH to mqttjs_532dea79 (d0, q0, r0, m0, 'mavlink/10_8_0_50_14550/json/ATTITUDE', ... (178 bytes))
1753792819: Sending PUBLISH to mqttjs_e3691d0d (d0, q0, r0, m0, 'mavlink/10_8_0_50_14550/json/ATTITUDE', ... (178 bytes))
1753792819: Sending PUBLISH to mqttjs_f5b3135a (d0, q0, r0, m0, 'mavlink/10_8_0_50_14550/json/ATTITUDE', ... (178 bytes))
1753792820: Received PUBLISH from telemetry_10_8_0_50_14550 (d0, q0, r1, m0, 'mavlink/10_8_0_50_14550/json/POWER_STATUS', ... (123 bytes))
1753792820: Sending PUBLISH to mqttjs_532dea79 (d0, q0, r0, m0, 'mavlink/10_8_0_50_14550/json/POWER_STATUS', ... (123 bytes))
1753792820: Sending PUBLISH to mqttjs_e3691d0d (d0, q0, r0, m0, 'mavlink/10_8_0_50_14550/json/POWER_STATUS', ... (123 bytes))
1753792820: Sending PUBLISH to mqttjs_f5b3135a (d0, q0, r0, m0, 'mavlink/10_8_0_50_14550/json/POWER_STATUS', ... (123 bytes))
1753792820: Received PUBLISH from telemetry_10_8_0_50_14550 (d0, q0, r1, m0, 'mavlink/10_8_0_50_14550/json/VFR_HUD', ... (160 bytes))
1753792820: Sending PUBLISH to mqttjs_532dea79 (d0, q0, r0, m0, 'mavlink/10_8_0_50_14550/json/VFR_HUD', ... (160 bytes))
1753792820: Sending PUBLISH to mqttjs_e3691d0d (d0, q0, r0, m0, 'mavlink/10_8_0_50_14550/json/VFR_HUD', ... (160 bytes))
1753792820: Sending PUBLISH to mqttjs_f5b3135a (d0, q0, r0, m0, 'mavlink/10_8_0_50_14550/json/VFR_HUD', ... (160 bytes))
1753792820: Received PUBLISH from telemetry_10_8_0_50_14550 (d0, q0, r1, m0, 'mavlink/10_8_0_50_14550/json/HEARTBEAT', ... (182 bytes))
1753792820: Sending PUBLISH to mqttjs_532dea79 (d0, q0, r0, m0, 'mavlink/10_8_0_50_14550/json/HEARTBEAT', ... (182 bytes))
1753792820: Sending PUBLISH to mqttjs_e3691d0d (d0, q0, r0, m0, 'mavlink/10_8_0_50_14550/json/HEARTBEAT', ... (182 bytes))
1753792820: Sending PUBLISH to mqttjs_f5b3135a (d0, q0, r0, m0, 'mavlink/10_8_0_50_14550/json/HEARTBEAT', ... (182 bytes))
1753792820: Received PUBLISH from telemetry_10_8_0_50_14550 (d0, q0, r1, m0, 'mavlink/10_8_0_50_14550/json/ATTITUDE', ... (177 bytes))
1753792820: Sending PUBLISH to mqttjs_532dea79 (d0, q0, r0, m0, 'mavlink/10_8_0_50_14550/json/ATTITUDE', ... (177 bytes))
1753792820: Sending PUBLISH to mqttjs_e3691d0d (d0, q0, r0, m0, 'mavlink/10_8_0_50_14550/json/ATTITUDE', ... (177 bytes))
1753792820: Sending PUBLISH to mqttjs_f5b3135a (d0, q0, r0, m0, 'mavlink/10_8_0_50_14550/json/ATTITUDE', ... (177 bytes))
1753792821: Received PUBLISH from telemetry_10_8_0_50_14550 (d0, q0, r1, m0, 'mavlink/10_8_0_50_14550/json/POWER_STATUS', ... (123 bytes))
1753792821: Sending PUBLISH to mqttjs_532dea79 (d0, q0, r0, m0, 'mavlink/10_8_0_50_14550/json/POWER_STATUS', ... (123 bytes))
1753792821: Sending PUBLISH to mqttjs_e3691d0d (d0, q0, r0, m0, 'mavlink/10_8_0_50_14550/json/POWER_STATUS', ... (123 bytes))
1753792821: Sending PUBLISH to mqttjs_f5b3135a (d0, q0, r0, m0, 'mavlink/10_8_0_50_14550/json/POWER_STATUS', ... (123 bytes))
1753792821: Received PUBLISH from telemetry_10_8_0_50_14550 (d0, q0, r1, m0, 'mavlink/10_8_0_50_14550/json/ATTITUDE', ... (178 bytes))
1753792821: Sending PUBLISH to mqttjs_532dea79 (d0, q0, r0, m0, 'mavlink/10_8_0_50_14550/json/ATTITUDE', ... (178 bytes))
1753792821: Sending PUBLISH to mqttjs_e3691d0d (d0, q0, r0, m0, 'mavlink/10_8_0_50_14550/json/ATTITUDE', ... (178 bytes))
1753792821: Sending PUBLISH to mqttjs_f5b3135a (d0, q0, r0, m0, 'mavlink/10_8_0_50_14550/json/ATTITUDE', ... (178 bytes))
1753792821: Received PUBLISH from telemetry_10_8_0_50_14550 (d0, q0, r1, m0, 'mavlink/10_8_0_50_14550/json/POWER_STATUS', ... (123 bytes))
1753792821: Sending PUBLISH to mqttjs_532dea79 (d0, q0, r0, m0, 'mavlink/10_8_0_50_14550/json/POWER_STATUS', ... (123 bytes))
1753792821: Sending PUBLISH to mqttjs_e3691d0d (d0, q0, r0, m0, 'mavlink/10_8_0_50_14550/json/POWER_STATUS', ... (123 bytes))
1753792821: Sending PUBLISH to mqttjs_f5b3135a (d0, q0, r0, m0, 'mavlink/10_8_0_50_14550/json/POWER_STATUS', ... (123 bytes))
1753792821: Received PUBLISH from telemetry_10_8_0_50_14550 (d0, q0, r1, m0, 'mavlink/10_8_0_50_14550/json/BATTERY_STATUS', ... (314 bytes))
1753792821: Sending PUBLISH to mqttjs_532dea79 (d0, q0, r0, m0, 'mavlink/10_8_0_50_14550/json/BATTERY_STATUS', ... (314 bytes))
1753792821: Sending PUBLISH to mqttjs_e3691d0d (d0, q0, r0, m0, 'mavlink/10_8_0_50_14550/json/BATTERY_STATUS', ... (314 bytes))
1753792821: Sending PUBLISH to mqttjs_f5b3135a (d0, q0, r0, m0, 'mavlink/10_8_0_50_14550/json/BATTERY_STATUS', ... (314 bytes))
1753792821: Received PUBLISH from telemetry_10_8_0_50_14550 (d0, q0, r1, m0, 'mavlink/10_8_0_50_14550/json/VFR_HUD', ... (160 bytes))
1753792821: Sending PUBLISH to mqttjs_532dea79 (d0, q0, r0, m0, 'mavlink/10_8_0_50_14550/json/VFR_HUD', ... (160 bytes))
1753792821: Sending PUBLISH to mqttjs_e3691d0d (d0, q0, r0, m0, 'mavlink/10_8_0_50_14550/json/VFR_HUD', ... (160 bytes))
1753792821: Sending PUBLISH to mqttjs_f5b3135a (d0, q0, r0, m0, 'mavlink/10_8_0_50_14550/json/VFR_HUD', ... (160 bytes))
1753792821: Received PUBLISH from telemetry_10_8_0_50_14550 (d0, q0, r1, m0, 'mavlink/10_8_0_50_14550/json/POWER_STATUS', ... (123 bytes))
1753792821: Sending PUBLISH to mqttjs_532dea79 (d0, q0, r0, m0, 'mavlink/10_8_0_50_14550/json/POWER_STATUS', ... (123 bytes))
1753792821: Sending PUBLISH to mqttjs_e3691d0d (d0, q0, r0, m0, 'mavlink/10_8_0_50_14550/json/POWER_STATUS', ... (123 bytes))
1753792821: Sending PUBLISH to mqttjs_f5b3135a (d0, q0, r0, m0, 'mavlink/10_8_0_50_14550/json/POWER_STATUS', ... (123 bytes))
1753792822: Received PUBLISH from telemetry_10_8_0_50_14550 (d0, q0, r1, m0, 'mavlink/10_8_0_50_14550/json/ATTITUDE', ... (178 bytes))
1753792822: Sending PUBLISH to mqttjs_532dea79 (d0, q0, r0, m0, 'mavlink/10_8_0_50_14550/json/ATTITUDE', ... (178 bytes))
1753792822: Sending PUBLISH to mqttjs_e3691d0d (d0, q0, r0, m0, 'mavlink/10_8_0_50_14550/json/ATTITUDE', ... (178 bytes))
1753792822: Sending PUBLISH to mqttjs_f5b3135a (d0, q0, r0, m0, 'mavlink/10_8_0_50_14550/json/ATTITUDE', ... (178 bytes))
1753792822: Received PUBLISH from telemetry_10_8_0_50_14550 (d0, q0, r1, m0, 'mavlink/10_8_0_50_14550/json/POWER_STATUS', ... (123 bytes))
1753792822: Sending PUBLISH to mqttjs_532dea79 (d0, q0, r0, m0, 'mavlink/10_8_0_50_14550/json/POWER_STATUS', ... (123 bytes))
1753792822: Sending PUBLISH to mqttjs_e3691d0d (d0, q0, r0, m0, 'mavlink/10_8_0_50_14550/json/POWER_STATUS', ... (123 bytes))
1753792822: Sending PUBLISH to mqttjs_f5b3135a (d0, q0, r0, m0, 'mavlink/10_8_0_50_14550/json/POWER_STATUS', ... (123 bytes))
1753792822: Received PUBLISH from telemetry_10_8_0_50_14550 (d0, q0, r1, m0, 'mavlink/10_8_0_50_14550/json/ATTITUDE', ... (178 bytes))
1753792822: Sending PUBLISH to mqttjs_532dea79 (d0, q0, r0, m0, 'mavlink/10_8_0_50_14550/json/ATTITUDE', ... (178 bytes))
1753792822: Sending PUBLISH to mqttjs_e3691d0d (d0, q0, r0, m0, 'mavlink/10_8_0_50_14550/json/ATTITUDE', ... (178 bytes))
1753792822: Sending PUBLISH to mqttjs_f5b3135a (d0, q0, r0, m0, 'mavlink/10_8_0_50_14550/json/ATTITUDE', ... (178 bytes))
1753792823: Received PUBLISH from telemetry_10_8_0_50_14550 (d0, q0, r1, m0, 'mavlink/10_8_0_50_14550/json/POWER_STATUS', ... (123 bytes))
1753792823: Sending PUBLISH to mqttjs_532dea79 (d0, q0, r0, m0, 'mavlink/10_8_0_50_14550/json/POWER_STATUS', ... (123 bytes))
1753792823: Sending PUBLISH to mqttjs_e3691d0d (d0, q0, r0, m0, 'mavlink/10_8_0_50_14550/json/POWER_STATUS', ... (123 bytes))
1753792823: Sending PUBLISH to mqttjs_f5b3135a (d0, q0, r0, m0, 'mavlink/10_8_0_50_14550/json/POWER_STATUS', ... (123 bytes))
1753792823: Received PUBLISH from telemetry_10_8_0_50_14550 (d0, q0, r1, m0, 'mavlink/10_8_0_50_14550/json/ATTITUDE', ... (177 bytes))
1753792823: Sending PUBLISH to mqttjs_532dea79 (d0, q0, r0, m0, 'mavlink/10_8_0_50_14550/json/ATTITUDE', ... (177 bytes))
1753792823: Sending PUBLISH to mqttjs_e3691d0d (d0, q0, r0, m0, 'mavlink/10_8_0_50_14550/json/ATTITUDE', ... (177 bytes))
1753792823: Sending PUBLISH to mqttjs_f5b3135a (d0, q0, r0, m0, 'mavlink/10_8_0_50_14550/json/ATTITUDE', ... (177 bytes))
1753792823: Received PUBLISH from telemetry_10_8_0_50_14550 (d0, q0, r1, m0, 'mavlink/10_8_0_50_14550/json/POWER_STATUS', ... (123 bytes))
1753792823: Sending PUBLISH to mqttjs_532dea79 (d0, q0, r0, m0, 'mavlink/10_8_0_50_14550/json/POWER_STATUS', ... (123 bytes))
1753792823: Sending PUBLISH to mqttjs_e3691d0d (d0, q0, r0, m0, 'mavlink/10_8_0_50_14550/json/POWER_STATUS', ... (123 bytes))
1753792823: Sending PUBLISH to mqttjs_f5b3135a (d0, q0, r0, m0, 'mavlink/10_8_0_50_14550/json/POWER_STATUS', ... (123 bytes))
1753792823: Received PUBLISH from telemetry_10_8_0_50_14550 (d0, q0, r1, m0, 'mavlink/10_8_0_50_14550/json/ATTITUDE', ... (177 bytes))
1753792823: Sending PUBLISH to mqttjs_532dea79 (d0, q0, r0, m0, 'mavlink/10_8_0_50_14550/json/ATTITUDE', ... (177 bytes))
1753792823: Sending PUBLISH to mqttjs_e3691d0d (d0, q0, r0, m0, 'mavlink/10_8_0_50_14550/json/ATTITUDE', ... (177 bytes))
1753792823: Sending PUBLISH to mqttjs_f5b3135a (d0, q0, r0, m0, 'mavlink/10_8_0_50_14550/json/ATTITUDE', ... (177 bytes))
1753792824: Received PUBLISH from telemetry_10_8_0_50_14550 (d0, q0, r1, m0, 'mavlink/10_8_0_50_14550/json/POWER_STATUS', ... (123 bytes))
1753792824: Sending PUBLISH to mqttjs_532dea79 (d0, q0, r0, m0, 'mavlink/10_8_0_50_14550/json/POWER_STATUS', ... (123 bytes))
1753792824: Sending PUBLISH to mqttjs_e3691d0d (d0, q0, r0, m0, 'mavlink/10_8_0_50_14550/json/POWER_STATUS', ... (123 bytes))
1753792824: Sending PUBLISH to mqttjs_f5b3135a (d0, q0, r0, m0, 'mavlink/10_8_0_50_14550/json/POWER_STATUS', ... (123 bytes))
1753792824: Received PUBLISH from telemetry_10_8_0_50_14550 (d0, q0, r1, m0, 'mavlink/10_8_0_50_14550/json/ATTITUDE', ... (177 bytes))
1753792824: Sending PUBLISH to mqttjs_532dea79 (d0, q0, r0, m0, 'mavlink/10_8_0_50_14550/json/ATTITUDE', ... (177 bytes))
1753792824: Sending PUBLISH to mqttjs_e3691d0d (d0, q0, r0, m0, 'mavlink/10_8_0_50_14550/json/ATTITUDE', ... (177 bytes))
1753792824: Sending PUBLISH to mqttjs_f5b3135a (d0, q0, r0, m0, 'mavlink/10_8_0_50_14550/json/ATTITUDE', ... (177 bytes))
1753792824: Received PUBLISH from telemetry_10_8_0_50_14550 (d0, q0, r1, m0, 'mavlink/10_8_0_50_14550/json/HEARTBEAT', ... (182 bytes))
1753792824: Sending PUBLISH to mqttjs_532dea79 (d0, q0, r0, m0, 'mavlink/10_8_0_50_14550/json/HEARTBEAT', ... (182 bytes))
1753792824: Sending PUBLISH to mqttjs_e3691d0d (d0, q0, r0, m0, 'mavlink/10_8_0_50_14550/json/HEARTBEAT', ... (182 bytes))
1753792824: Sending PUBLISH to mqttjs_f5b3135a (d0, q0, r0, m0, 'mavlink/10_8_0_50_14550/json/HEARTBEAT', ... (182 bytes))
1753792824: Received PUBLISH from telemetry_10_8_0_50_14550 (d0, q0, r1, m0, 'mavlink/10_8_0_50_14550/json/VFR_HUD', ... (159 bytes))
1753792824: Sending PUBLISH to mqttjs_532dea79 (d0, q0, r0, m0, 'mavlink/10_8_0_50_14550/json/VFR_HUD', ... (159 bytes))
1753792824: Sending PUBLISH to mqttjs_e3691d0d (d0, q0, r0, m0, 'mavlink/10_8_0_50_14550/json/VFR_HUD', ... (159 bytes))
1753792824: Sending PUBLISH to mqttjs_f5b3135a (d0, q0, r0, m0, 'mavlink/10_8_0_50_14550/json/VFR_HUD', ... (159 bytes))
1753792824: Received PUBLISH from telemetry_10_8_0_50_14550 (d0, q0, r1, m0, 'mavlink/10_8_0_50_14550/json/VFR_HUD', ... (160 bytes))
1753792824: Sending PUBLISH to mqttjs_532dea79 (d0, q0, r0, m0, 'mavlink/10_8_0_50_14550/json/VFR_HUD', ... (160 bytes))
1753792824: Sending PUBLISH to mqttjs_e3691d0d (d0, q0, r0, m0, 'mavlink/10_8_0_50_14550/json/VFR_HUD', ... (160 bytes))
1753792824: Sending PUBLISH to mqttjs_f5b3135a (d0, q0, r0, m0, 'mavlink/10_8_0_50_14550/json/VFR_HUD', ... (160 bytes))
1753792824: Received PUBLISH from telemetry_10_8_0_50_14550 (d0, q0, r1, m0, 'mavlink/10_8_0_50_14550/json/POWER_STATUS', ... (123 bytes))
1753792824: Sending PUBLISH to mqttjs_532dea79 (d0, q0, r0, m0, 'mavlink/10_8_0_50_14550/json/POWER_STATUS', ... (123 bytes))
1753792824: Sending PUBLISH to mqttjs_e3691d0d (d0, q0, r0, m0, 'mavlink/10_8_0_50_14550/json/POWER_STATUS', ... (123 bytes))
1753792824: Sending PUBLISH to mqttjs_f5b3135a (d0, q0, r0, m0, 'mavlink/10_8_0_50_14550/json/POWER_STATUS', ... (123 bytes))
1753792825: Received PUBLISH from telemetry_10_8_0_50_14550 (d0, q0, r1, m0, 'mavlink/10_8_0_50_14550/json/ATTITUDE', ... (177 bytes))
1753792825: Sending PUBLISH to mqttjs_532dea79 (d0, q0, r0, m0, 'mavlink/10_8_0_50_14550/json/ATTITUDE', ... (177 bytes))
1753792825: Sending PUBLISH to mqttjs_e3691d0d (d0, q0, r0, m0, 'mavlink/10_8_0_50_14550/json/ATTITUDE', ... (177 bytes))
1753792825: Sending PUBLISH to mqttjs_f5b3135a (d0, q0, r0, m0, 'mavlink/10_8_0_50_14550/json/ATTITUDE', ... (177 bytes))
1753792825: Received PUBLISH from telemetry_10_8_0_50_14550 (d0, q0, r1, m0, 'mavlink/10_8_0_50_14550/json/POWER_STATUS', ... (123 bytes))
1753792825: Sending PUBLISH to mqttjs_532dea79 (d0, q0, r0, m0, 'mavlink/10_8_0_50_14550/json/POWER_STATUS', ... (123 bytes))
1753792825: Sending PUBLISH to mqttjs_e3691d0d (d0, q0, r0, m0, 'mavlink/10_8_0_50_14550/json/POWER_STATUS', ... (123 bytes))
1753792825: Sending PUBLISH to mqttjs_f5b3135a (d0, q0, r0, m0, 'mavlink/10_8_0_50_14550/json/POWER_STATUS', ... (123 bytes))
1753792825: Received PUBLISH from telemetry_10_8_0_50_14550 (d0, q0, r1, m0, 'mavlink/10_8_0_50_14550/json/ATTITUDE', ... (178 bytes))
1753792825: Sending PUBLISH to mqttjs_532dea79 (d0, q0, r0, m0, 'mavlink/10_8_0_50_14550/json/ATTITUDE', ... (178 bytes))
1753792825: Sending PUBLISH to mqttjs_e3691d0d (d0, q0, r0, m0, 'mavlink/10_8_0_50_14550/json/ATTITUDE', ... (178 bytes))
1753792825: Sending PUBLISH to mqttjs_f5b3135a (d0, q0, r0, m0, 'mavlink/10_8_0_50_14550/json/ATTITUDE', ... (178 bytes))
1753792826: Received PUBLISH from telemetry_10_8_0_50_14550 (d0, q0, r1, m0, 'mavlink/10_8_0_50_14550/json/POWER_STATUS', ... (121 bytes))
1753792826: Sending PUBLISH to mqttjs_532dea79 (d0, q0, r0, m0, 'mavlink/10_8_0_50_14550/json/POWER_STATUS', ... (121 bytes))
1753792826: Sending PUBLISH to mqttjs_e3691d0d (d0, q0, r0, m0, 'mavlink/10_8_0_50_14550/json/POWER_STATUS', ... (121 bytes))
1753792826: Sending PUBLISH to mqttjs_f5b3135a (d0, q0, r0, m0, 'mavlink/10_8_0_50_14550/json/POWER_STATUS', ... (121 bytes))
1753792826: Received PUBLISH from telemetry_10_8_0_50_14550 (d0, q0, r1, m0, 'mavlink/10_8_0_50_14550/json/ATTITUDE', ... (176 bytes))
1753792826: Sending PUBLISH to mqttjs_532dea79 (d0, q0, r0, m0, 'mavlink/10_8_0_50_14550/json/ATTITUDE', ... (176 bytes))
1753792826: Sending PUBLISH to mqttjs_e3691d0d (d0, q0, r0, m0, 'mavlink/10_8_0_50_14550/json/ATTITUDE', ... (176 bytes))
1753792826: Sending PUBLISH to mqttjs_f5b3135a (d0, q0, r0, m0, 'mavlink/10_8_0_50_14550/json/ATTITUDE', ... (176 bytes))
1753792826: Received PUBLISH from telemetry_10_8_0_50_14550 (d0, q0, r1, m0, 'mavlink/10_8_0_50_14550/json/POWER_STATUS', ... (123 bytes))
1753792826: Sending PUBLISH to mqttjs_532dea79 (d0, q0, r0, m0, 'mavlink/10_8_0_50_14550/json/POWER_STATUS', ... (123 bytes))
1753792826: Sending PUBLISH to mqttjs_e3691d0d (d0, q0, r0, m0, 'mavlink/10_8_0_50_14550/json/POWER_STATUS', ... (123 bytes))
1753792826: Sending PUBLISH to mqttjs_f5b3135a (d0, q0, r0, m0, 'mavlink/10_8_0_50_14550/json/POWER_STATUS', ... (123 bytes))
1753792826: Received PUBLISH from telemetry_10_8_0_50_14550 (d0, q0, r1, m0, 'mavlink/10_8_0_50_14550/json/ATTITUDE', ... (176 bytes))
1753792826: Sending PUBLISH to mqttjs_532dea79 (d0, q0, r0, m0, 'mavlink/10_8_0_50_14550/json/ATTITUDE', ... (176 bytes))
1753792826: Sending PUBLISH to mqttjs_e3691d0d (d0, q0, r0, m0, 'mavlink/10_8_0_50_14550/json/ATTITUDE', ... (176 bytes))
1753792826: Sending PUBLISH to mqttjs_f5b3135a (d0, q0, r0, m0, 'mavlink/10_8_0_50_14550/json/ATTITUDE', ... (176 bytes))
1753792827: Received PUBLISH from telemetry_10_8_0_50_14550 (d0, q0, r1, m0, 'mavlink/10_8_0_50_14550/json/POWER_STATUS', ... (123 bytes))
1753792827: Sending PUBLISH to mqttjs_532dea79 (d0, q0, r0, m0, 'mavlink/10_8_0_50_14550/json/POWER_STATUS', ... (123 bytes))
1753792827: Sending PUBLISH to mqttjs_e3691d0d (d0, q0, r0, m0, 'mavlink/10_8_0_50_14550/json/POWER_STATUS', ... (123 bytes))
1753792827: Sending PUBLISH to mqttjs_f5b3135a (d0, q0, r0, m0, 'mavlink/10_8_0_50_14550/json/POWER_STATUS', ... (123 bytes))
1753792827: Received PUBLISH from telemetry_10_8_0_50_14550 (d0, q0, r1, m0, 'mavlink/10_8_0_50_14550/json/VFR_HUD', ... (160 bytes))
1753792827: Sending PUBLISH to mqttjs_532dea79 (d0, q0, r0, m0, 'mavlink/10_8_0_50_14550/json/VFR_HUD', ... (160 bytes))
1753792827: Sending PUBLISH to mqttjs_e3691d0d (d0, q0, r0, m0, 'mavlink/10_8_0_50_14550/json/VFR_HUD', ... (160 bytes))
1753792827: Sending PUBLISH to mqttjs_f5b3135a (d0, q0, r0, m0, 'mavlink/10_8_0_50_14550/json/VFR_HUD', ... (160 bytes))
1753792827: Received PUBLISH from telemetry_10_8_0_50_14550 (d0, q0, r1, m0, 'mavlink/10_8_0_50_14550/json/POWER_STATUS', ... (123 bytes))
1753792827: Sending PUBLISH to mqttjs_532dea79 (d0, q0, r0, m0, 'mavlink/10_8_0_50_14550/json/POWER_STATUS', ... (123 bytes))
1753792827: Sending PUBLISH to mqttjs_e3691d0d (d0, q0, r0, m0, 'mavlink/10_8_0_50_14550/json/POWER_STATUS', ... (123 bytes))
1753792827: Sending PUBLISH to mqttjs_f5b3135a (d0, q0, r0, m0, 'mavlink/10_8_0_50_14550/json/POWER_STATUS', ... (123 bytes))
1753792827: Received PUBLISH from telemetry_10_8_0_50_14550 (d0, q0, r1, m0, 'mavlink/10_8_0_50_14550/json/ATTITUDE', ... (178 bytes))
1753792827: Sending PUBLISH to mqttjs_532dea79 (d0, q0, r0, m0, 'mavlink/10_8_0_50_14550/json/ATTITUDE', ... (178 bytes))
1753792827: Sending PUBLISH to mqttjs_e3691d0d (d0, q0, r0, m0, 'mavlink/10_8_0_50_14550/json/ATTITUDE', ... (178 bytes))
1753792827: Sending PUBLISH to mqttjs_f5b3135a (d0, q0, r0, m0, 'mavlink/10_8_0_50_14550/json/ATTITUDE', ... (178 bytes))
1753792827: Received PUBLISH from telemetry_10_8_0_50_14550 (d0, q0, r1, m0, 'mavlink/10_8_0_50_14550/json/VFR_HUD', ... (160 bytes))
1753792827: Sending PUBLISH to mqttjs_532dea79 (d0, q0, r0, m0, 'mavlink/10_8_0_50_14550/json/VFR_HUD', ... (160 bytes))
1753792827: Sending PUBLISH to mqttjs_e3691d0d (d0, q0, r0, m0, 'mavlink/10_8_0_50_14550/json/VFR_HUD', ... (160 bytes))
1753792827: Sending PUBLISH to mqttjs_f5b3135a (d0, q0, r0, m0, 'mavlink/10_8_0_50_14550/json/VFR_HUD', ... (160 bytes))
1753792827: Received PUBLISH from telemetry_10_8_0_50_14550 (d0, q0, r1, m0, 'mavlink/10_8_0_50_14550/json/POWER_STATUS', ... (123 bytes))
1753792827: Sending PUBLISH to mqttjs_532dea79 (d0, q0, r0, m0, 'mavlink/10_8_0_50_14550/json/POWER_STATUS', ... (123 bytes))
1753792827: Sending PUBLISH to mqttjs_e3691d0d (d0, q0, r0, m0, 'mavlink/10_8_0_50_14550/json/POWER_STATUS', ... (123 bytes))
1753792827: Sending PUBLISH to mqttjs_f5b3135a (d0, q0, r0, m0, 'mavlink/10_8_0_50_14550/json/POWER_STATUS', ... (123 bytes))
1753792828: Received PUBLISH from telemetry_10_8_0_50_14550 (d0, q0, r1, m0, 'mavlink/10_8_0_50_14550/json/ATTITUDE', ... (178 bytes))
1753792828: Sending PUBLISH to mqttjs_532dea79 (d0, q0, r0, m0, 'mavlink/10_8_0_50_14550/json/ATTITUDE', ... (178 bytes))
1753792828: Sending PUBLISH to mqttjs_e3691d0d (d0, q0, r0, m0, 'mavlink/10_8_0_50_14550/json/ATTITUDE', ... (178 bytes))
1753792828: Sending PUBLISH to mqttjs_f5b3135a (d0, q0, r0, m0, 'mavlink/10_8_0_50_14550/json/ATTITUDE', ... (178 bytes))
1753792828: Received PUBLISH from telemetry_10_8_0_50_14550 (d0, q0, r1, m0, 'mavlink/10_8_0_50_14550/json/POWER_STATUS', ... (123 bytes))
1753792828: Sending PUBLISH to mqttjs_532dea79 (d0, q0, r0, m0, 'mavlink/10_8_0_50_14550/json/POWER_STATUS', ... (123 bytes))
1753792828: Sending PUBLISH to mqttjs_e3691d0d (d0, q0, r0, m0, 'mavlink/10_8_0_50_14550/json/POWER_STATUS', ... (123 bytes))
1753792828: Sending PUBLISH to mqttjs_f5b3135a (d0, q0, r0, m0, 'mavlink/10_8_0_50_14550/json/POWER_STATUS', ... (123 bytes))
1753792828: Received PUBLISH from telemetry_10_8_0_50_14550 (d0, q0, r1, m0, 'mavlink/10_8_0_50_14550/json/ATTITUDE', ... (178 bytes))
1753792828: Sending PUBLISH to mqttjs_532dea79 (d0, q0, r0, m0, 'mavlink/10_8_0_50_14550/json/ATTITUDE', ... (178 bytes))
1753792828: Sending PUBLISH to mqttjs_e3691d0d (d0, q0, r0, m0, 'mavlink/10_8_0_50_14550/json/ATTITUDE', ... (178 bytes))
1753792828: Sending PUBLISH to mqttjs_f5b3135a (d0, q0, r0, m0, 'mavlink/10_8_0_50_14550/json/ATTITUDE', ... (178 bytes))
1753792829: Received PUBLISH from telemetry_10_8_0_50_14550 (d0, q0, r1, m0, 'mavlink/10_8_0_50_14550/json/POWER_STATUS', ... (123 bytes))
1753792829: Sending PUBLISH to mqttjs_532dea79 (d0, q0, r0, m0, 'mavlink/10_8_0_50_14550/json/POWER_STATUS', ... (123 bytes))
1753792829: Sending PUBLISH to mqttjs_e3691d0d (d0, q0, r0, m0, 'mavlink/10_8_0_50_14550/json/POWER_STATUS', ... (123 bytes))
1753792829: Sending PUBLISH to mqttjs_f5b3135a (d0, q0, r0, m0, 'mavlink/10_8_0_50_14550/json/POWER_STATUS', ... (123 bytes))
1753792829: Received PUBLISH from telemetry_10_8_0_50_14550 (d0, q0, r1, m0, 'mavlink/10_8_0_50_14550/json/ATTITUDE', ... (178 bytes))
1753792829: Sending PUBLISH to mqttjs_532dea79 (d0, q0, r0, m0, 'mavlink/10_8_0_50_14550/json/ATTITUDE', ... (178 bytes))
1753792829: Sending PUBLISH to mqttjs_e3691d0d (d0, q0, r0, m0, 'mavlink/10_8_0_50_14550/json/ATTITUDE', ... (178 bytes))
1753792829: Sending PUBLISH to mqttjs_f5b3135a (d0, q0, r0, m0, 'mavlink/10_8_0_50_14550/json/ATTITUDE', ... (178 bytes))
1753792829: Received PUBLISH from telemetry_10_8_0_50_14550 (d0, q0, r1, m0, 'mavlink/10_8_0_50_14550/json/VFR_HUD', ... (160 bytes))
1753792829: Sending PUBLISH to mqttjs_532dea79 (d0, q0, r0, m0, 'mavlink/10_8_0_50_14550/json/VFR_HUD', ... (160 bytes))
1753792829: Sending PUBLISH to mqttjs_e3691d0d (d0, q0, r0, m0, 'mavlink/10_8_0_50_14550/json/VFR_HUD', ... (160 bytes))
1753792829: Sending PUBLISH to mqttjs_f5b3135a (d0, q0, r0, m0, 'mavlink/10_8_0_50_14550/json/VFR_HUD', ... (160 bytes))
1753792829: Received PUBLISH from telemetry_10_8_0_50_14550 (d0, q0, r1, m0, 'mavlink/10_8_0_50_14550/json/HEARTBEAT', ... (182 bytes))
1753792829: Sending PUBLISH to mqttjs_532dea79 (d0, q0, r0, m0, 'mavlink/10_8_0_50_14550/json/HEARTBEAT', ... (182 bytes))
1753792829: Sending PUBLISH to mqttjs_e3691d0d (d0, q0, r0, m0, 'mavlink/10_8_0_50_14550/json/HEARTBEAT', ... (182 bytes))
1753792829: Sending PUBLISH to mqttjs_f5b3135a (d0, q0, r0, m0, 'mavlink/10_8_0_50_14550/json/HEARTBEAT', ... (182 bytes))
1753792829: Received PUBLISH from telemetry_10_8_0_50_14550 (d0, q0, r1, m0, 'mavlink/10_8_0_50_14550/json/ATTITUDE', ... (178 bytes))
1753792829: Sending PUBLISH to mqttjs_532dea79 (d0, q0, r0, m0, 'mavlink/10_8_0_50_14550/json/ATTITUDE', ... (178 bytes))
1753792829: Sending PUBLISH to mqttjs_e3691d0d (d0, q0, r0, m0, 'mavlink/10_8_0_50_14550/json/ATTITUDE', ... (178 bytes))
1753792829: Sending PUBLISH to mqttjs_f5b3135a (d0, q0, r0, m0, 'mavlink/10_8_0_50_14550/json/ATTITUDE', ... (178 bytes))
1753792829: Received PUBLISH from telemetry_10_8_0_50_14550 (d0, q0, r1, m0, 'mavlink/10_8_0_50_14550/json/GLOBAL_POSITION_INT', ... (229 bytes))
1753792829: Sending PUBLISH to mqttjs_532dea79 (d0, q0, r0, m0, 'mavlink/10_8_0_50_14550/json/GLOBAL_POSITION_INT', ... (229 bytes))
1753792829: Sending PUBLISH to mqttjs_e3691d0d (d0, q0, r0, m0, 'mavlink/10_8_0_50_14550/json/GLOBAL_POSITION_INT', ... (229 bytes))
1753792829: Sending PUBLISH to mqttjs_f5b3135a (d0, q0, r0, m0, 'mavlink/10_8_0_50_14550/json/GLOBAL_POSITION_INT', ... (229 bytes))
1753792830: Received PUBLISH from telemetry_10_8_0_50_14550 (d0, q0, r1, m0, 'mavlink/10_8_0_50_14550/json/ATTITUDE', ... (177 bytes))
1753792830: Sending PUBLISH to mqttjs_532dea79 (d0, q0, r0, m0, 'mavlink/10_8_0_50_14550/json/ATTITUDE', ... (177 bytes))
1753792830: Sending PUBLISH to mqttjs_e3691d0d (d0, q0, r0, m0, 'mavlink/10_8_0_50_14550/json/ATTITUDE', ... (177 bytes))
1753792830: Sending PUBLISH to mqttjs_f5b3135a (d0, q0, r0, m0, 'mavlink/10_8_0_50_14550/json/ATTITUDE', ... (177 bytes))
1753792830: Received PUBLISH from telemetry_10_8_0_50_14550 (d0, q0, r1, m0, 'mavlink/10_8_0_50_14550/json/HEARTBEAT', ... (182 bytes))
1753792830: Sending PUBLISH to mqttjs_532dea79 (d0, q0, r0, m0, 'mavlink/10_8_0_50_14550/json/HEARTBEAT', ... (182 bytes))
1753792830: Sending PUBLISH to mqttjs_e3691d0d (d0, q0, r0, m0, 'mavlink/10_8_0_50_14550/json/HEARTBEAT', ... (182 bytes))
1753792830: Sending PUBLISH to mqttjs_f5b3135a (d0, q0, r0, m0, 'mavlink/10_8_0_50_14550/json/HEARTBEAT', ... (182 bytes))
1753792830: Received PUBLISH from telemetry_10_8_0_50_14550 (d0, q0, r1, m0, 'mavlink/10_8_0_50_14550/json/RC_CHANNELS_SCALED', ... (284 bytes))
1753792830: Sending PUBLISH to mqttjs_532dea79 (d0, q0, r0, m0, 'mavlink/10_8_0_50_14550/json/RC_CHANNELS_SCALED', ... (284 bytes))
1753792830: Sending PUBLISH to mqttjs_e3691d0d (d0, q0, r0, m0, 'mavlink/10_8_0_50_14550/json/RC_CHANNELS_SCALED', ... (284 bytes))
1753792830: Sending PUBLISH to mqttjs_f5b3135a (d0, q0, r0, m0, 'mavlink/10_8_0_50_14550/json/RC_CHANNELS_SCALED', ... (284 bytes))
1753792830: Received PUBLISH from telemetry_10_8_0_50_14550 (d0, q0, r1, m0, 'mavlink/10_8_0_50_14550/json/VFR_HUD', ... (160 bytes))
1753792830: Sending PUBLISH to mqttjs_532dea79 (d0, q0, r0, m0, 'mavlink/10_8_0_50_14550/json/VFR_HUD', ... (160 bytes))
1753792830: Sending PUBLISH to mqttjs_e3691d0d (d0, q0, r0, m0, 'mavlink/10_8_0_50_14550/json/VFR_HUD', ... (160 bytes))
1753792830: Sending PUBLISH to mqttjs_f5b3135a (d0, q0, r0, m0, 'mavlink/10_8_0_50_14550/json/VFR_HUD', ... (160 bytes))
1753792830: Received PUBLISH from telemetry_10_8_0_50_14550 (d0, q0, r1, m0, 'mavlink/10_8_0_50_14550/json/POWER_STATUS', ... (123 bytes))
1753792830: Sending PUBLISH to mqttjs_532dea79 (d0, q0, r0, m0, 'mavlink/10_8_0_50_14550/json/POWER_STATUS', ... (123 bytes))
1753792830: Sending PUBLISH to mqttjs_e3691d0d (d0, q0, r0, m0, 'mavlink/10_8_0_50_14550/json/POWER_STATUS', ... (123 bytes))
1753792830: Sending PUBLISH to mqttjs_f5b3135a (d0, q0, r0, m0, 'mavlink/10_8_0_50_14550/json/POWER_STATUS', ... (123 bytes))
1753792831: Received PUBLISH from telemetry_10_8_0_50_14550 (d0, q0, r1, m0, 'mavlink/10_8_0_50_14550/json/ATTITUDE', ... (178 bytes))
1753792831: Sending PUBLISH to mqttjs_532dea79 (d0, q0, r0, m0, 'mavlink/10_8_0_50_14550/json/ATTITUDE', ... (178 bytes))
1753792831: Sending PUBLISH to mqttjs_e3691d0d (d0, q0, r0, m0, 'mavlink/10_8_0_50_14550/json/ATTITUDE', ... (178 bytes))
1753792831: Sending PUBLISH to mqttjs_f5b3135a (d0, q0, r0, m0, 'mavlink/10_8_0_50_14550/json/ATTITUDE', ... (178 bytes))
1753792831: Received PUBLISH from telemetry_10_8_0_50_14550 (d0, q0, r1, m0, 'mavlink/10_8_0_50_14550/json/HEARTBEAT', ... (182 bytes))
1753792831: Sending PUBLISH to mqttjs_532dea79 (d0, q0, r0, m0, 'mavlink/10_8_0_50_14550/json/HEARTBEAT', ... (182 bytes))
1753792831: Sending PUBLISH to mqttjs_e3691d0d (d0, q0, r0, m0, 'mavlink/10_8_0_50_14550/json/HEARTBEAT', ... (182 bytes))
1753792831: Sending PUBLISH to mqttjs_f5b3135a (d0, q0, r0, m0, 'mavlink/10_8_0_50_14550/json/HEARTBEAT', ... (182 bytes))
1753792831: Received PUBLISH from telemetry_10_8_0_50_14550 (d0, q0, r1, m0, 'mavlink/10_8_0_50_14550/json/ATTITUDE', ... (178 bytes))
1753792831: Sending PUBLISH to mqttjs_532dea79 (d0, q0, r0, m0, 'mavlink/10_8_0_50_14550/json/ATTITUDE', ... (178 bytes))
1753792831: Sending PUBLISH to mqttjs_e3691d0d (d0, q0, r0, m0, 'mavlink/10_8_0_50_14550/json/ATTITUDE', ... (178 bytes))
1753792831: Sending PUBLISH to mqttjs_f5b3135a (d0, q0, r0, m0, 'mavlink/10_8_0_50_14550/json/ATTITUDE', ... (178 bytes))
1753792832: Received PUBLISH from telemetry_10_8_0_50_14550 (d0, q0, r1, m0, 'mavlink/10_8_0_50_14550/json/GLOBAL_POSITION_INT', ... (229 bytes))
1753792832: Sending PUBLISH to mqttjs_532dea79 (d0, q0, r0, m0, 'mavlink/10_8_0_50_14550/json/GLOBAL_POSITION_INT', ... (229 bytes))
1753792832: Sending PUBLISH to mqttjs_e3691d0d (d0, q0, r0, m0, 'mavlink/10_8_0_50_14550/json/GLOBAL_POSITION_INT', ... (229 bytes))
1753792832: Sending PUBLISH to mqttjs_f5b3135a (d0, q0, r0, m0, 'mavlink/10_8_0_50_14550/json/GLOBAL_POSITION_INT', ... (229 bytes))
1753792832: Received PUBLISH from telemetry_10_8_0_50_14550 (d0, q0, r1, m0, 'mavlink/10_8_0_50_14550/json/ATTITUDE', ... (178 bytes))
1753792832: Sending PUBLISH to mqttjs_532dea79 (d0, q0, r0, m0, 'mavlink/10_8_0_50_14550/json/ATTITUDE', ... (178 bytes))
1753792832: Sending PUBLISH to mqttjs_e3691d0d (d0, q0, r0, m0, 'mavlink/10_8_0_50_14550/json/ATTITUDE', ... (178 bytes))
1753792832: Sending PUBLISH to mqttjs_f5b3135a (d0, q0, r0, m0, 'mavlink/10_8_0_50_14550/json/ATTITUDE', ... (178 bytes))
1753792832: Received PUBLISH from telemetry_10_8_0_50_14550 (d0, q0, r1, m0, 'mavlink/10_8_0_50_14550/json/VFR_HUD', ... (160 bytes))
1753792832: Sending PUBLISH to mqttjs_532dea79 (d0, q0, r0, m0, 'mavlink/10_8_0_50_14550/json/VFR_HUD', ... (160 bytes))
1753792832: Sending PUBLISH to mqttjs_e3691d0d (d0, q0, r0, m0, 'mavlink/10_8_0_50_14550/json/VFR_HUD', ... (160 bytes))
1753792832: Sending PUBLISH to mqttjs_f5b3135a (d0, q0, r0, m0, 'mavlink/10_8_0_50_14550/json/VFR_HUD', ... (160 bytes))
1753792832: Received PUBLISH from telemetry_10_8_0_50_14550 (d0, q0, r1, m0, 'mavlink/10_8_0_50_14550/json/POWER_STATUS', ... (123 bytes))
1753792832: Sending PUBLISH to mqttjs_532dea79 (d0, q0, r0, m0, 'mavlink/10_8_0_50_14550/json/POWER_STATUS', ... (123 bytes))
1753792832: Sending PUBLISH to mqttjs_e3691d0d (d0, q0, r0, m0, 'mavlink/10_8_0_50_14550/json/POWER_STATUS', ... (123 bytes))
1753792832: Sending PUBLISH to mqttjs_f5b3135a (d0, q0, r0, m0, 'mavlink/10_8_0_50_14550/json/POWER_STATUS', ... (123 bytes))
1753792832: Received PUBLISH from telemetry_10_8_0_50_14550 (d0, q0, r1, m0, 'mavlink/10_8_0_50_14550/json/ATTITUDE', ... (178 bytes))
1753792832: Sending PUBLISH to mqttjs_532dea79 (d0, q0, r0, m0, 'mavlink/10_8_0_50_14550/json/ATTITUDE', ... (178 bytes))
1753792832: Sending PUBLISH to mqttjs_e3691d0d (d0, q0, r0, m0, 'mavlink/10_8_0_50_14550/json/ATTITUDE', ... (178 bytes))
1753792832: Sending PUBLISH to mqttjs_f5b3135a (d0, q0, r0, m0, 'mavlink/10_8_0_50_14550/json/ATTITUDE', ... (178 bytes))
1753792833: Received PUBLISH from telemetry_10_8_0_50_14550 (d0, q0, r1, m0, 'mavlink/10_8_0_50_14550/json/POWER_STATUS', ... (122 bytes))
1753792833: Sending PUBLISH to mqttjs_532dea79 (d0, q0, r0, m0, 'mavlink/10_8_0_50_14550/json/POWER_STATUS', ... (122 bytes))
1753792833: Sending PUBLISH to mqttjs_e3691d0d (d0, q0, r0, m0, 'mavlink/10_8_0_50_14550/json/POWER_STATUS', ... (122 bytes))
1753792833: Sending PUBLISH to mqttjs_f5b3135a (d0, q0, r0, m0, 'mavlink/10_8_0_50_14550/json/POWER_STATUS', ... (122 bytes))
1753792833: Received PUBLISH from telemetry_10_8_0_50_14550 (d0, q0, r1, m0, 'mavlink/10_8_0_50_14550/json/ATTITUDE', ... (178 bytes))
1753792833: Sending PUBLISH to mqttjs_532dea79 (d0, q0, r0, m0, 'mavlink/10_8_0_50_14550/json/ATTITUDE', ... (178 bytes))
1753792833: Sending PUBLISH to mqttjs_e3691d0d (d0, q0, r0, m0, 'mavlink/10_8_0_50_14550/json/ATTITUDE', ... (178 bytes))
1753792833: Sending PUBLISH to mqttjs_f5b3135a (d0, q0, r0, m0, 'mavlink/10_8_0_50_14550/json/ATTITUDE', ... (178 bytes))
1753792833: Received PUBLISH from telemetry_10_8_0_50_14550 (d0, q0, r1, m0, 'mavlink/10_8_0_50_14550/json/POWER_STATUS', ... (123 bytes))
1753792833: Sending PUBLISH to mqttjs_532dea79 (d0, q0, r0, m0, 'mavlink/10_8_0_50_14550/json/POWER_STATUS', ... (123 bytes))
1753792833: Sending PUBLISH to mqttjs_e3691d0d (d0, q0, r0, m0, 'mavlink/10_8_0_50_14550/json/POWER_STATUS', ... (123 bytes))
1753792833: Sending PUBLISH to mqttjs_f5b3135a (d0, q0, r0, m0, 'mavlink/10_8_0_50_14550/json/POWER_STATUS', ... (123 bytes))
1753792833: Received PUBLISH from telemetry_10_8_0_50_14550 (d0, q0, r1, m0, 'mavlink/10_8_0_50_14550/json/BATTERY_STATUS', ... (314 bytes))
1753792833: Sending PUBLISH to mqttjs_532dea79 (d0, q0, r0, m0, 'mavlink/10_8_0_50_14550/json/BATTERY_STATUS', ... (314 bytes))
1753792833: Sending PUBLISH to mqttjs_e3691d0d (d0, q0, r0, m0, 'mavlink/10_8_0_50_14550/json/BATTERY_STATUS', ... (314 bytes))
1753792833: Sending PUBLISH to mqttjs_f5b3135a (d0, q0, r0, m0, 'mavlink/10_8_0_50_14550/json/BATTERY_STATUS', ... (314 bytes))
1753792833: Received PUBLISH from telemetry_10_8_0_50_14550 (d0, q0, r1, m0, 'mavlink/10_8_0_50_14550/json/VFR_HUD', ... (160 bytes))
1753792833: Sending PUBLISH to mqttjs_532dea79 (d0, q0, r0, m0, 'mavlink/10_8_0_50_14550/json/VFR_HUD', ... (160 bytes))
1753792833: Sending PUBLISH to mqttjs_e3691d0d (d0, q0, r0, m0, 'mavlink/10_8_0_50_14550/json/VFR_HUD', ... (160 bytes))
1753792833: Sending PUBLISH to mqttjs_f5b3135a (d0, q0, r0, m0, 'mavlink/10_8_0_50_14550/json/VFR_HUD', ... (160 bytes))
1753792833: Received PUBLISH from telemetry_10_8_0_50_14550 (d0, q0, r1, m0, 'mavlink/10_8_0_50_14550/json/POWER_STATUS', ... (123 bytes))
1753792833: Sending PUBLISH to mqttjs_532dea79 (d0, q0, r0, m0, 'mavlink/10_8_0_50_14550/json/POWER_STATUS', ... (123 bytes))
1753792833: Sending PUBLISH to mqttjs_e3691d0d (d0, q0, r0, m0, 'mavlink/10_8_0_50_14550/json/POWER_STATUS', ... (123 bytes))
1753792833: Sending PUBLISH to mqttjs_f5b3135a (d0, q0, r0, m0, 'mavlink/10_8_0_50_14550/json/POWER_STATUS', ... (123 bytes))
1753792834: Received PUBLISH from telemetry_10_8_0_50_14550 (d0, q0, r1, m0, 'mavlink/10_8_0_50_14550/json/ATTITUDE', ... (178 bytes))
1753792834: Sending PUBLISH to mqttjs_532dea79 (d0, q0, r0, m0, 'mavlink/10_8_0_50_14550/json/ATTITUDE', ... (178 bytes))
1753792834: Sending PUBLISH to mqttjs_e3691d0d (d0, q0, r0, m0, 'mavlink/10_8_0_50_14550/json/ATTITUDE', ... (178 bytes))
1753792834: Sending PUBLISH to mqttjs_f5b3135a (d0, q0, r0, m0, 'mavlink/10_8_0_50_14550/json/ATTITUDE', ... (178 bytes))
1753792834: Received PUBLISH from telemetry_10_8_0_50_14550 (d0, q0, r1, m0, 'mavlink/10_8_0_50_14550/json/POWER_STATUS', ... (123 bytes))
1753792834: Sending PUBLISH to mqttjs_532dea79 (d0, q0, r0, m0, 'mavlink/10_8_0_50_14550/json/POWER_STATUS', ... (123 bytes))
